[
  {
    "name_en": "Dhaka (Kamalapur)",
    "name_bn": "ঢাকা (কমলাপুর)",
    "code": "DHKA",
    "shohoz_city": "DHAKA",
    "zone": "East",
    "division": "Dhaka",
    "gauge": "Dual",
    "latitude": 23.7332,
    "longitude": 90.4272,
    "is_major": true,
    "is_active": true,
    "station_class": "A"
  },
  {
    "name_en": "Dhaka Airport",
    "name_bn": "ঢাকা বিমানবন্দর",
    "code": "DABB",
    "shohoz_city": "DHAKA AIRPORT",
    "zone": "East",
    "division": "Dhaka",
    "gauge": "Dual",
    "latitude": 23.8522,
    "longitude": 90.4083,
    "is_major": false,
    "is_active": true,
    "station_class": "B"
  },
  {
    "name_en": "Dhaka Cantonment",
    "name_bn": "ঢাকা ক্যান্টনমেন্ট",
    "code": "DHCA",
    "shohoz_city": "DHAKA CANTONMENT",
    "zone": "East",
    "division": "Dhaka",
    "gauge": "Dual",
    "latitude": 23.8155,
    "longitude": 90.4106,
    "is_major": false,
    "is_active": true,
    "station_class": "B",
    "note": "International terminus — Maitree Express & Mitali Express to India"
  },
  {
    "name_en": "Banani",
    "name_bn": "বনানী",
    "code": "BNNI",
    "shohoz_city": "BANANI",
    "zone": "East",
    "division": "Dhaka",
    "gauge": "Dual",
    "latitude": 23.7957,
    "longitude": 90.4008,
    "is_major": false,
    "is_active": true,
    "station_class": "C"
  },
  {
    "name_en": "Tejgaon",
    "name_bn": "তেজগাঁও",
    "code": "TJG",
    "shohoz_city": "TEJGAON",
    "zone": "East",
    "division": "Dhaka",
    "gauge": "Dual",
    "latitude": 23.7676,
    "longitude": 90.3896,
    "is_major": false,
    "is_active": true,
    "station_class": "C"
  },
  {
    "name_en": "Tongi",
    "name_bn": "টঙ্গী",
    "code": "TNG",
    "shohoz_city": "TONGI",
    "zone": "East",
    "division": "Dhaka",
    "gauge": "Dual",
    "latitude": 23.8973,
    "longitude": 90.3994,
    "is_major": false,
    "is_active": true,
    "station_class": "B"
  },
  {
    "name_en": "Joydebpur",
    "name_bn": "জয়দেবপুর",
    "code": "JDP",
    "shohoz_city": "JOYDEBPUR",
    "zone": "East",
    "division": "Dhaka",
    "gauge": "Dual",
    "latitude": 23.9999,
    "longitude": 90.4011,
    "is_major": false,
    "is_active": true,
    "station_class": "B"
  },
  {
    "name_en": "Narsingdi",
    "name_bn": "নরসিংদী",
    "code": "NSD",
    "shohoz_city": "NARSINGDI",
    "zone": "East",
    "division": "Dhaka",
    "gauge": "Meter",
    "latitude": 23.9215,
    "longitude": 90.7139,
    "is_major": false,
    "is_active": true,
    "station_class": "B"
  },
  {
    "name_en": "Bhairab Bazar",
    "name_bn": "ভৈরব বাজার",
    "code": "BBZ",
    "shohoz_city": "BHAIRAB BAZAR",
    "zone": "East",
    "division": "Dhaka",
    "gauge": "Meter",
    "latitude": 24.0528,
    "longitude": 90.9736,
    "is_major": false,
    "is_active": true,
    "station_class": "B"
  },
  {
    "name_en": "Narayanganj",
    "name_bn": "নারায়ণগঞ্জ",
    "code": "NRG",
    "shohoz_city": "NARAYANGANJ",
    "zone": "East",
    "division": "Dhaka",
    "gauge": "Meter",
    "latitude": 23.6238,
    "longitude": 90.4996,
    "is_major": false,
    "is_active": true,
    "station_class": "B"
  },
  {
    "name_en": "Chattogram",
    "name_bn": "চট্টগ্রাম",
    "code": "CTG",
    "shohoz_city": "CHATTOGRAM",
    "zone": "East",
    "division": "Chittagong",
    "gauge": "Meter",
    "latitude": 22.3384,
    "longitude": 91.8317,
    "is_major": true,
    "is_active": true,
    "station_class": "A"
  },
  {
    "name_en": "Comilla",
    "name_bn": "কুমিল্লা",
    "code": "COM",
    "shohoz_city": "COMILLA",
    "zone": "East",
    "division": "Chittagong",
    "gauge": "Meter",
    "latitude": 23.4607,
    "longitude": 91.1809,
    "is_major": false,
    "is_active": true,
    "station_class": "B"
  },
  {
    "name_en": "Akhaura",
    "name_bn": "আখাউড়া",
    "code": "AKH",
    "shohoz_city": "AKHAURA",
    "zone": "East",
    "division": "Chittagong",
    "gauge": "Meter",
    "latitude": 23.8842,
    "longitude": 91.1497,
    "is_major": false,
    "is_active": true,
    "station_class": "B",
    "note": "Junction for Sylhet and Chittagong lines"
  },
  {
    "name_en": "Laksam",
    "name_bn": "লাকসাম",
    "code": "LKS",
    "shohoz_city": "LAKSAM",
    "zone": "East",
    "division": "Chittagong",
    "gauge": "Meter",
    "latitude": 23.2481,
    "longitude": 91.1367,
    "is_major": false,
    "is_active": true,
    "station_class": "B"
  },
  {
    "name_en": "Noakhali",
    "name_bn": "নোয়াখালী",
    "code": "NOA",
    "shohoz_city": "NOAKHALI",
    "zone": "East",
    "division": "Chittagong",
    "gauge": "Meter",
    "latitude": 22.8696,
    "longitude": 91.0996,
    "is_major": false,
    "is_active": true,
    "station_class": "B"
  },
  {
    "name_en": "Chandpur",
    "name_bn": "চাঁদপুর",
    "code": "CDP",
    "shohoz_city": "CHANDPUR",
    "zone": "East",
    "division": "Chittagong",
    "gauge": "Meter",
    "latitude": 23.2332,
    "longitude": 90.6518,
    "is_major": false,
    "is_active": true,
    "station_class": "B"
  },
  {
    "name_en": "Cox's Bazar",
    "name_bn": "কক্সবাজার",
    "code": "CXBZ",
    "shohoz_city": "COX'S BAZAR",
    "zone": "East",
    "division": "Chittagong",
    "gauge": "Meter",
    "latitude": 21.4272,
    "longitude": 92.0058,
    "is_major": false,
    "is_active": true,
    "station_class": "B",
    "note": "Newly opened 2023 — served by Cox's Bazar Express 813/814"
  },
  {
    "name_en": "Sylhet",
    "name_bn": "সিলেট",
    "code": "SYT",
    "shohoz_city": "SYLHET",
    "zone": "East",
    "division": "Sylhet",
    "gauge": "Meter",
    "latitude": 24.8949,
    "longitude": 91.8687,
    "is_major": true,
    "is_active": true,
    "station_class": "A"
  },
  {
    "name_en": "Sreemangal",
    "name_bn": "শ্রীমঙ্গল",
    "code": "SRM",
    "shohoz_city": "SREEMANGAL",
    "zone": "East",
    "division": "Sylhet",
    "gauge": "Meter",
    "latitude": 24.3068,
    "longitude": 91.7279,
    "is_major": false,
    "is_active": true,
    "station_class": "B"
  },
  {
    "name_en": "Kulaura",
    "name_bn": "কুলাউড়া",
    "code": "KLR",
    "shohoz_city": "KULAURA",
    "zone": "East",
    "division": "Sylhet",
    "gauge": "Meter",
    "latitude": 24.5358,
    "longitude": 92.0356,
    "is_major": false,
    "is_active": true,
    "station_class": "C"
  },
  {
    "name_en": "Kishoreganj",
    "name_bn": "কিশোরগঞ্জ",
    "code": "KSG",
    "shohoz_city": "KISHOREGANJ",
    "zone": "East",
    "division": "Dhaka",
    "gauge": "Meter",
    "latitude": 24.4449,
    "longitude": 90.782,
    "is_major": false,
    "is_active": true,
    "station_class": "B"
  },
  {
    "name_en": "Mymensingh",
    "name_bn": "ময়মনসিংহ",
    "code": "MYM",
    "shohoz_city": "MYMENSINGH",
    "zone": "East",
    "division": "Mymensingh",
    "gauge": "Meter",
    "latitude": 24.7471,
    "longitude": 90.4073,
    "is_major": true,
    "is_active": true,
    "station_class": "A"
  },
  {
    "name_en": "Jamalpur",
    "name_bn": "জামালপুর",
    "code": "JMP",
    "shohoz_city": "JAMALPUR",
    "zone": "East",
    "division": "Mymensingh",
    "gauge": "Meter",
    "latitude": 24.9004,
    "longitude": 89.9433,
    "is_major": false,
    "is_active": true,
    "station_class": "B"
  },
  {
    "name_en": "Netrokona",
    "name_bn": "নেত্রকোণা",
    "code": "NTK",
    "shohoz_city": "NETROKONA",
    "zone": "East",
    "division": "Mymensingh",
    "gauge": "Meter",
    "latitude": 24.8803,
    "longitude": 90.8674,
    "is_major": false,
    "is_active": true,
    "station_class": "B"
  },
  {
    "name_en": "Rajshahi",
    "name_bn": "রাজশাহী",
    "code": "RAJ",
    "shohoz_city": "RAJSHAHI",
    "zone": "West",
    "division": "Rajshahi",
    "gauge": "Broad",
    "latitude": 24.3749,
    "longitude": 88.6048,
    "is_major": true,
    "is_active": true,
    "station_class": "A"
  },
  {
    "name_en": "Natore",
    "name_bn": "নাটোর",
    "code": "NTR",
    "shohoz_city": "NATORE",
    "zone": "West",
    "division": "Rajshahi",
    "gauge": "Broad",
    "latitude": 24.4203,
    "longitude": 88.9922,
    "is_major": false,
    "is_active": true,
    "station_class": "B"
  },
  {
    "name_en": "Ishwardi",
    "name_bn": "ঈশ্বরদী",
    "code": "IWD",
    "shohoz_city": "ISHWARDI",
    "zone": "West",
    "division": "Rajshahi",
    "gauge": "Broad",
    "latitude": 24.1302,
    "longitude": 89.0611,
    "is_major": false,
    "is_active": true,
    "station_class": "B",
    "note": "Major junction — East-West crossing point"
  },
  {
    "name_en": "Santahar",
    "name_bn": "সান্তাহার",
    "code": "STH",
    "shohoz_city": "SANTAHAR",
    "zone": "West",
    "division": "Rajshahi",
    "gauge": "Broad",
    "latitude": 24.7573,
    "longitude": 89.0391,
    "is_major": false,
    "is_active": true,
    "station_class": "B",
    "note": "Major junction for Rangpur/Dinajpur lines"
  },
  {
    "name_en": "Bogura",
    "name_bn": "বগুড়া",
    "code": "BOG",
    "shohoz_city": "BOGURA",
    "zone": "West",
    "division": "Rajshahi",
    "gauge": "Broad",
    "latitude": 24.8466,
    "longitude": 89.3773,
    "is_major": false,
    "is_active": true,
    "station_class": "B"
  },
  {
    "name_en": "Sirajganj",
    "name_bn": "সিরাজগঞ্জ",
    "code": "SJG",
    "shohoz_city": "SIRAJGANJ",
    "zone": "West",
    "division": "Rajshahi",
    "gauge": "Broad",
    "latitude": 24.4536,
    "longitude": 89.7161,
    "is_major": false,
    "is_active": true,
    "station_class": "B"
  },
  {
    "name_en": "Joypurhat",
    "name_bn": "জয়পুরহাট",
    "code": "JPH",
    "shohoz_city": "JOYPURHAT",
    "zone": "West",
    "division": "Rajshahi",
    "gauge": "Broad",
    "latitude": 25.1006,
    "longitude": 89.0189,
    "is_major": false,
    "is_active": true,
    "station_class": "B"
  },
  {
    "name_en": "Chapai Nawabganj",
    "name_bn": "চাঁপাইনবাবগঞ্জ",
    "code": "CPN",
    "shohoz_city": "CHAPAINAWABGANJ",
    "zone": "West",
    "division": "Rajshahi",
    "gauge": "Broad",
    "latitude": 24.5948,
    "longitude": 88.2773,
    "is_major": false,
    "is_active": true,
    "station_class": "B"
  },
  {
    "name_en": "Parbatipur",
    "name_bn": "পার্বতীপুর",
    "code": "PBP",
    "shohoz_city": "PARBATIPUR",
    "zone": "West",
    "division": "Rangpur",
    "gauge": "Broad",
    "latitude": 25.6476,
    "longitude": 88.9002,
    "is_major": false,
    "is_active": true,
    "station_class": "B",
    "note": "Junction — Rangpur/Dinajpur/Lalmonirhat lines"
  },
  {
    "name_en": "Dinajpur",
    "name_bn": "দিনাজপুর",
    "code": "DNJ",
    "shohoz_city": "DINAJPUR",
    "zone": "West",
    "division": "Rangpur",
    "gauge": "Broad",
    "latitude": 25.6279,
    "longitude": 88.6337,
    "is_major": false,
    "is_active": true,
    "station_class": "B"
  },
  {
    "name_en": "Rangpur",
    "name_bn": "রংপুর",
    "code": "RNG",
    "shohoz_city": "RANGPUR",
    "zone": "West",
    "division": "Rangpur",
    "gauge": "Broad",
    "latitude": 25.7439,
    "longitude": 89.2752,
    "is_major": false,
    "is_active": true,
    "station_class": "B"
  },
  {
    "name_en": "Lalmonirhat",
    "name_bn": "লালমনিরহাট",
    "code": "LMH",
    "shohoz_city": "LALMONIRHAT",
    "zone": "West",
    "division": "Rangpur",
    "gauge": "Broad",
    "latitude": 25.92,
    "longitude": 89.448,
    "is_major": false,
    "is_active": true,
    "station_class": "B"
  },
  {
    "name_en": "Panchagarh",
    "name_bn": "পঞ্চগড়",
    "code": "PCG",
    "shohoz_city": "PANCHAGARH",
    "zone": "West",
    "division": "Rangpur",
    "gauge": "Broad",
    "latitude": 26.3393,
    "longitude": 88.5493,
    "is_major": false,
    "is_active": true,
    "station_class": "B"
  },
  {
    "name_en": "Kurigram",
    "name_bn": "কুড়িগ্রাম",
    "code": "KRG",
    "shohoz_city": "KURIGRAM",
    "zone": "West",
    "division": "Rangpur",
    "gauge": "Broad",
    "latitude": 25.8033,
    "longitude": 89.636,
    "is_major": false,
    "is_active": true,
    "station_class": "B"
  },
  {
    "name_en": "Chilahati",
    "name_bn": "চিলাহাটি",
    "code": "CLH",
    "shohoz_city": "CHILAHATI",
    "zone": "West",
    "division": "Rangpur",
    "gauge": "Broad",
    "latitude": 25.9913,
    "longitude": 88.7742,
    "is_major": false,
    "is_active": true,
    "station_class": "B",
    "note": "Border station — potential international link to India"
  },
  {
    "name_en": "Khulna",
    "name_bn": "খুলনা",
    "code": "KHU",
    "shohoz_city": "KHULNA",
    "zone": "West",
    "division": "Khulna",
    "gauge": "Broad",
    "latitude": 22.8456,
    "longitude": 89.5403,
    "is_major": true,
    "is_active": true,
    "station_class": "A"
  },
  {
    "name_en": "Jessore (Jashore)",
    "name_bn": "যশোর",
    "code": "JS",
    "shohoz_city": "JASHORE",
    "zone": "West",
    "division": "Khulna",
    "gauge": "Broad",
    "latitude": 23.1543,
    "longitude": 89.2086,
    "is_major": false,
    "is_active": true,
    "station_class": "B"
  },
  {
    "name_en": "Benapole",
    "name_bn": "বেনাপোল",
    "code": "BNP",
    "shohoz_city": "BENAPOLE",
    "zone": "West",
    "division": "Khulna",
    "gauge": "Broad",
    "latitude": 23.0113,
    "longitude": 88.9307,
    "is_major": false,
    "is_active": true,
    "station_class": "B",
    "note": "Border station — India-Bangladesh land port"
  },
  {
    "name_en": "Rupsha",
    "name_bn": "রূপসা",
    "code": "RPS",
    "shohoz_city": "RUPSHA",
    "zone": "West",
    "division": "Khulna",
    "gauge": "Broad",
    "latitude": 22.7786,
    "longitude": 89.5584,
    "is_major": false,
    "is_active": true,
    "station_class": "C"
  },
  {
    "name_en": "Barisal",
    "name_bn": "বরিশাল",
    "code": "BRL",
    "shohoz_city": "BARISAL",
    "zone": "West",
    "division": "Barisal",
    "gauge": "Broad",
    "latitude": 22.701,
    "longitude": 90.3535,
    "is_major": false,
    "is_active": true,
    "station_class": "B",
    "note": "Planned — Padma Bridge rail link extension pending"
  },
  {
    "name_en": "Faridpur",
    "name_bn": "ফরিদপুর",
    "code": "FRP",
    "shohoz_city": "FARIDPUR",
    "zone": "West",
    "division": "Dhaka",
    "gauge": "Broad",
    "latitude": 23.607,
    "longitude": 89.8429,
    "is_major": false,
    "is_active": true,
    "station_class": "B",
    "note": "New Padma Bridge rail link station"
  },
  {
    "name_en": "Rajbari",
    "name_bn": "রাজবাড়ী",
    "code": "RBR",
    "shohoz_city": "RAJBARI",
    "zone": "West",
    "division": "Dhaka",
    "gauge": "Broad",
    "latitude": 23.7621,
    "longitude": 89.6398,
    "is_major": false,
    "is_active": true,
    "station_class": "B"
  },
  {
    "name_en": "Tangail",
    "name_bn": "টাঙ্গাইল",
    "code": "TGL",
    "shohoz_city": "TANGAIL",
    "zone": "East",
    "division": "Dhaka",
    "gauge": "Meter",
    "latitude": 24.2512,
    "longitude": 89.9167,
    "is_major": false,
    "is_active": true,
    "station_class": "B"
  },
  {
    "name_en": "Gazipur",
    "name_bn": "গাজীপুর",
    "code": "GZP",
    "shohoz_city": "GAZIPUR",
    "zone": "East",
    "division": "Dhaka",
    "gauge": "Dual",
    "latitude": 23.999,
    "longitude": 90.4115,
    "is_major": false,
    "is_active": true,
    "station_class": "B"
  },
  {
    "name_en": "Gaibandha",
    "name_bn": "গাইবান্ধা",
    "code": "GBD",
    "shohoz_city": "GAIBANDHA",
    "zone": "West",
    "division": "Rangpur",
    "gauge": "Broad",
    "latitude": 25.3285,
    "longitude": 89.5283,
    "is_major": false,
    "is_active": true,
    "station_class": "B"
  },
  {
    "name_en": "Pabna",
    "name_bn": "পাবনা",
    "code": "PBN",
    "shohoz_city": "PABNA",
    "zone": "West",
    "division": "Rajshahi",
    "gauge": "Broad",
    "latitude": 24.0064,
    "longitude": 89.2372,
    "is_major": false,
    "is_active": true,
    "station_class": "B"
  },
  {
    "name_en": "Ullapara",
    "name_bn": "উল্লাপাড়া",
    "code": "ULP",
    "shohoz_city": "ULLAPARA",
    "zone": "West",
    "division": "Rajshahi",
    "gauge": "Broad",
    "latitude": 24.3301,
    "longitude": 89.6024,
    "is_major": false,
    "is_active": true,
    "station_class": "B"
  },
  {
    "name_en": "Burimari",
    "name_bn": "বুড়িমারী",
    "code": "BMR",
    "shohoz_city": "BURIMARI",
    "zone": "West",
    "division": "Rangpur",
    "gauge": "Broad",
    "latitude": 25.8813,
    "longitude": 89.3394,
    "is_major": false,
    "is_active": true,
    "station_class": "B",
    "note": "Border station — India-Bangladesh land port"
  },
  {
    "name_en": "Dhalarchar",
    "name_bn": "ধলারচর",
    "code": "DLC",
    "shohoz_city": "DHALARCHAR",
    "zone": "West",
    "division": "Rajshahi",
    "gauge": "Broad",
    "latitude": 24.47,
    "longitude": 88.37,
    "is_major": false,
    "is_active": true,
    "station_class": "C",
    "note": "Added from validation/missing_stations.md pending source-level Bengali review."
  },
  {
    "name_en": "Mohonganj",
    "name_bn": "মোহনগঞ্জ",
    "code": "MHJ",
    "shohoz_city": "MOHONGANJ",
    "zone": "East",
    "division": "Mymensingh",
    "gauge": "Meter",
    "latitude": 24.69,
    "longitude": 90.99,
    "is_major": false,
    "is_active": true,
    "station_class": "C",
    "note": "Added from validation/missing_stations.md pending source-level Bengali review."
  }
]
