{
  "_meta": {
    "source": [
      "Wikipedia station articles (individual pages per station — verified codes)",
      "amartrain.com station list (verified division groupings)",
      "Shohoz API response samples (UPPERCASE city names used in search-trips-v2)"
    ],
    "confidence": "High for codes/coordinates of major intercity stations. Low for rural/halt stations.",
    "last_verified": "2026-06-10",
    "total_stations_in_bd_railway": 440,
    "stations_in_this_file": 52,
    "note": "This file covers the ~52 stations used in intercity train bookings via Shohoz API. The remaining ~388 stations are local/halt stops not served by intercity trains and are not bookable via eticket.railway.gov.bd. See missing_stations.md for the gap list.",
    "shohoz_city_code_note": "The Shohoz API uses UPPERCASE full-name city strings (e.g. 'DHAKA', 'CHATTOGRAM') as from_city/to_city params — NOT the 4-letter station codes. Both are included below."
  },
  "stations": [
    {
      "id": 1,
      "name_en": "Dhaka (Kamalapur)",
      "name_bn": "ঢাকা (কমলাপুর)",
      "code": "DHKA",
      "shohoz_city": "DHAKA",
      "zone": "East",
      "division": "Dhaka",
      "gauge": "Dual",
      "lat": 23.7332,
      "lng": 90.4272,
      "is_intercity_hub": true,
      "type": "A"
    },
    {
      "id": 2,
      "name_en": "Dhaka Airport",
      "name_bn": "ঢাকা বিমানবন্দর",
      "code": "DABB",
      "shohoz_city": "DHAKA AIRPORT",
      "zone": "East",
      "division": "Dhaka",
      "gauge": "Dual",
      "lat": 23.8522,
      "lng": 90.4083,
      "is_intercity_hub": false,
      "type": "B"
    },
    {
      "id": 3,
      "name_en": "Dhaka Cantonment",
      "name_bn": "ঢাকা ক্যান্টনমেন্ট",
      "code": "DHCA",
      "shohoz_city": "DHAKA CANTONMENT",
      "zone": "East",
      "division": "Dhaka",
      "gauge": "Dual",
      "lat": 23.8155,
      "lng": 90.4106,
      "is_intercity_hub": false,
      "type": "B",
      "note": "International terminus — Maitree Express & Mitali Express to India"
    },
    {
      "id": 4,
      "name_en": "Banani",
      "name_bn": "বনানী",
      "code": "BNNI",
      "shohoz_city": "BANANI",
      "zone": "East",
      "division": "Dhaka",
      "gauge": "Dual",
      "lat": 23.7957,
      "lng": 90.4008,
      "is_intercity_hub": false,
      "type": "C"
    },
    {
      "id": 5,
      "name_en": "Tejgaon",
      "name_bn": "তেজগাঁও",
      "code": "TJG",
      "shohoz_city": "TEJGAON",
      "zone": "East",
      "division": "Dhaka",
      "gauge": "Dual",
      "lat": 23.7676,
      "lng": 90.3896,
      "is_intercity_hub": false,
      "type": "C"
    },
    {
      "id": 6,
      "name_en": "Tongi",
      "name_bn": "টঙ্গী",
      "code": "TNG",
      "shohoz_city": "TONGI",
      "zone": "East",
      "division": "Dhaka",
      "gauge": "Dual",
      "lat": 23.8973,
      "lng": 90.3994,
      "is_intercity_hub": false,
      "type": "B"
    },
    {
      "id": 7,
      "name_en": "Joydebpur",
      "name_bn": "জয়দেবপুর",
      "code": "JDP",
      "shohoz_city": "JOYDEBPUR",
      "zone": "East",
      "division": "Dhaka",
      "gauge": "Dual",
      "lat": 23.9999,
      "lng": 90.4011,
      "is_intercity_hub": false,
      "type": "B"
    },
    {
      "id": 8,
      "name_en": "Narsingdi",
      "name_bn": "নরসিংদী",
      "code": "NSD",
      "shohoz_city": "NARSINGDI",
      "zone": "East",
      "division": "Dhaka",
      "gauge": "Meter",
      "lat": 23.9215,
      "lng": 90.7139,
      "is_intercity_hub": false,
      "type": "B"
    },
    {
      "id": 9,
      "name_en": "Bhairab Bazar",
      "name_bn": "ভৈরব বাজার",
      "code": "BBZ",
      "shohoz_city": "BHAIRAB BAZAR",
      "zone": "East",
      "division": "Dhaka",
      "gauge": "Meter",
      "lat": 24.0528,
      "lng": 90.9736,
      "is_intercity_hub": false,
      "type": "B"
    },
    {
      "id": 10,
      "name_en": "Narayanganj",
      "name_bn": "নারায়ণগঞ্জ",
      "code": "NRG",
      "shohoz_city": "NARAYANGANJ",
      "zone": "East",
      "division": "Dhaka",
      "gauge": "Meter",
      "lat": 23.6238,
      "lng": 90.4996,
      "is_intercity_hub": false,
      "type": "B"
    },
    {
      "id": 11,
      "name_en": "Chattogram",
      "name_bn": "চট্টগ্রাম",
      "code": "CTG",
      "shohoz_city": "CHATTOGRAM",
      "zone": "East",
      "division": "Chittagong",
      "gauge": "Meter",
      "lat": 22.3384,
      "lng": 91.8317,
      "is_intercity_hub": true,
      "type": "A"
    },
    {
      "id": 12,
      "name_en": "Comilla",
      "name_bn": "কুমিল্লা",
      "code": "COM",
      "shohoz_city": "COMILLA",
      "zone": "East",
      "division": "Chittagong",
      "gauge": "Meter",
      "lat": 23.4607,
      "lng": 91.1809,
      "is_intercity_hub": false,
      "type": "B"
    },
    {
      "id": 13,
      "name_en": "Akhaura",
      "name_bn": "আখাউড়া",
      "code": "AKH",
      "shohoz_city": "AKHAURA",
      "zone": "East",
      "division": "Chittagong",
      "gauge": "Meter",
      "lat": 23.8842,
      "lng": 91.1497,
      "is_intercity_hub": false,
      "type": "B",
      "note": "Junction for Sylhet and Chittagong lines"
    },
    {
      "id": 14,
      "name_en": "Laksam",
      "name_bn": "লাকসাম",
      "code": "LKS",
      "shohoz_city": "LAKSAM",
      "zone": "East",
      "division": "Chittagong",
      "gauge": "Meter",
      "lat": 23.2481,
      "lng": 91.1367,
      "is_intercity_hub": false,
      "type": "B"
    },
    {
      "id": 15,
      "name_en": "Noakhali",
      "name_bn": "নোয়াখালী",
      "code": "NOA",
      "shohoz_city": "NOAKHALI",
      "zone": "East",
      "division": "Chittagong",
      "gauge": "Meter",
      "lat": 22.8696,
      "lng": 91.0996,
      "is_intercity_hub": false,
      "type": "B"
    },
    {
      "id": 16,
      "name_en": "Chandpur",
      "name_bn": "চাঁদপুর",
      "code": "CDP",
      "shohoz_city": "CHANDPUR",
      "zone": "East",
      "division": "Chittagong",
      "gauge": "Meter",
      "lat": 23.2332,
      "lng": 90.6518,
      "is_intercity_hub": false,
      "type": "B"
    },
    {
      "id": 17,
      "name_en": "Cox's Bazar",
      "name_bn": "কক্সবাজার",
      "code": "CXBZ",
      "shohoz_city": "COX'S BAZAR",
      "zone": "East",
      "division": "Chittagong",
      "gauge": "Meter",
      "lat": 21.4272,
      "lng": 92.0058,
      "is_intercity_hub": false,
      "type": "B",
      "note": "Newly opened 2023 — served by Cox's Bazar Express 813/814"
    },
    {
      "id": 18,
      "name_en": "Sylhet",
      "name_bn": "সিলেট",
      "code": "SYT",
      "shohoz_city": "SYLHET",
      "zone": "East",
      "division": "Sylhet",
      "gauge": "Meter",
      "lat": 24.8949,
      "lng": 91.8687,
      "is_intercity_hub": true,
      "type": "A"
    },
    {
      "id": 19,
      "name_en": "Sreemangal",
      "name_bn": "শ্রীমঙ্গল",
      "code": "SRM",
      "shohoz_city": "SREEMANGAL",
      "zone": "East",
      "division": "Sylhet",
      "gauge": "Meter",
      "lat": 24.3068,
      "lng": 91.7279,
      "is_intercity_hub": false,
      "type": "B"
    },
    {
      "id": 20,
      "name_en": "Kulaura",
      "name_bn": "কুলাউড়া",
      "code": "KLR",
      "shohoz_city": "KULAURA",
      "zone": "East",
      "division": "Sylhet",
      "gauge": "Meter",
      "lat": 24.5358,
      "lng": 92.0356,
      "is_intercity_hub": false,
      "type": "C"
    },
    {
      "id": 21,
      "name_en": "Kishoreganj",
      "name_bn": "কিশোরগঞ্জ",
      "code": "KSG",
      "shohoz_city": "KISHOREGANJ",
      "zone": "East",
      "division": "Dhaka",
      "gauge": "Meter",
      "lat": 24.4449,
      "lng": 90.7820,
      "is_intercity_hub": false,
      "type": "B"
    },
    {
      "id": 22,
      "name_en": "Mymensingh",
      "name_bn": "ময়মনসিংহ",
      "code": "MYM",
      "shohoz_city": "MYMENSINGH",
      "zone": "East",
      "division": "Mymensingh",
      "gauge": "Meter",
      "lat": 24.7471,
      "lng": 90.4073,
      "is_intercity_hub": true,
      "type": "A"
    },
    {
      "id": 23,
      "name_en": "Jamalpur",
      "name_bn": "জামালপুর",
      "code": "JMP",
      "shohoz_city": "JAMALPUR",
      "zone": "East",
      "division": "Mymensingh",
      "gauge": "Meter",
      "lat": 24.9004,
      "lng": 89.9433,
      "is_intercity_hub": false,
      "type": "B"
    },
    {
      "id": 24,
      "name_en": "Netrokona",
      "name_bn": "নেত্রকোণা",
      "code": "NTK",
      "shohoz_city": "NETROKONA",
      "zone": "East",
      "division": "Mymensingh",
      "gauge": "Meter",
      "lat": 24.8803,
      "lng": 90.8674,
      "is_intercity_hub": false,
      "type": "B"
    },
    {
      "id": 25,
      "name_en": "Rajshahi",
      "name_bn": "রাজশাহী",
      "code": "RAJ",
      "shohoz_city": "RAJSHAHI",
      "zone": "West",
      "division": "Rajshahi",
      "gauge": "Broad",
      "lat": 24.3749,
      "lng": 88.6048,
      "is_intercity_hub": true,
      "type": "A"
    },
    {
      "id": 26,
      "name_en": "Natore",
      "name_bn": "নাটোর",
      "code": "NTR",
      "shohoz_city": "NATORE",
      "zone": "West",
      "division": "Rajshahi",
      "gauge": "Broad",
      "lat": 24.4203,
      "lng": 88.9922,
      "is_intercity_hub": false,
      "type": "B"
    },
    {
      "id": 27,
      "name_en": "Ishwardi",
      "name_bn": "ঈশ্বরদী",
      "code": "IWD",
      "shohoz_city": "ISHWARDI",
      "zone": "West",
      "division": "Rajshahi",
      "gauge": "Broad",
      "lat": 24.1302,
      "lng": 89.0611,
      "is_intercity_hub": false,
      "type": "B",
      "note": "Major junction — East-West crossing point"
    },
    {
      "id": 28,
      "name_en": "Santahar",
      "name_bn": "সান্তাহার",
      "code": "STH",
      "shohoz_city": "SANTAHAR",
      "zone": "West",
      "division": "Rajshahi",
      "gauge": "Broad",
      "lat": 24.7573,
      "lng": 89.0391,
      "is_intercity_hub": false,
      "type": "B",
      "note": "Major junction for Rangpur/Dinajpur lines"
    },
    {
      "id": 29,
      "name_en": "Bogura",
      "name_bn": "বগুড়া",
      "code": "BOG",
      "shohoz_city": "BOGURA",
      "zone": "West",
      "division": "Rajshahi",
      "gauge": "Broad",
      "lat": 24.8466,
      "lng": 89.3773,
      "is_intercity_hub": false,
      "type": "B"
    },
    {
      "id": 30,
      "name_en": "Sirajganj",
      "name_bn": "সিরাজগঞ্জ",
      "code": "SJG",
      "shohoz_city": "SIRAJGANJ",
      "zone": "West",
      "division": "Rajshahi",
      "gauge": "Broad",
      "lat": 24.4536,
      "lng": 89.7161,
      "is_intercity_hub": false,
      "type": "B"
    },
    {
      "id": 31,
      "name_en": "Joypurhat",
      "name_bn": "জয়পুরহাট",
      "code": "JPH",
      "shohoz_city": "JOYPURHAT",
      "zone": "West",
      "division": "Rajshahi",
      "gauge": "Broad",
      "lat": 25.1006,
      "lng": 89.0189,
      "is_intercity_hub": false,
      "type": "B"
    },
    {
      "id": 32,
      "name_en": "Chapai Nawabganj",
      "name_bn": "চাঁপাইনবাবগঞ্জ",
      "code": "CPN",
      "shohoz_city": "CHAPAINAWABGANJ",
      "zone": "West",
      "division": "Rajshahi",
      "gauge": "Broad",
      "lat": 24.5948,
      "lng": 88.2773,
      "is_intercity_hub": false,
      "type": "B"
    },
    {
      "id": 33,
      "name_en": "Parbatipur",
      "name_bn": "পার্বতীপুর",
      "code": "PBP",
      "shohoz_city": "PARBATIPUR",
      "zone": "West",
      "division": "Rangpur",
      "gauge": "Broad",
      "lat": 25.6476,
      "lng": 88.9002,
      "is_intercity_hub": false,
      "type": "B",
      "note": "Junction — Rangpur/Dinajpur/Lalmonirhat lines"
    },
    {
      "id": 34,
      "name_en": "Dinajpur",
      "name_bn": "দিনাজপুর",
      "code": "DNJ",
      "shohoz_city": "DINAJPUR",
      "zone": "West",
      "division": "Rangpur",
      "gauge": "Broad",
      "lat": 25.6279,
      "lng": 88.6337,
      "is_intercity_hub": false,
      "type": "B"
    },
    {
      "id": 35,
      "name_en": "Rangpur",
      "name_bn": "রংপুর",
      "code": "RNG",
      "shohoz_city": "RANGPUR",
      "zone": "West",
      "division": "Rangpur",
      "gauge": "Broad",
      "lat": 25.7439,
      "lng": 89.2752,
      "is_intercity_hub": false,
      "type": "B"
    },
    {
      "id": 36,
      "name_en": "Lalmonirhat",
      "name_bn": "লালমনিরহাট",
      "code": "LMH",
      "shohoz_city": "LALMONIRHAT",
      "zone": "West",
      "division": "Rangpur",
      "gauge": "Broad",
      "lat": 25.9200,
      "lng": 89.4480,
      "is_intercity_hub": false,
      "type": "B"
    },
    {
      "id": 37,
      "name_en": "Panchagarh",
      "name_bn": "পঞ্চগড়",
      "code": "PCG",
      "shohoz_city": "PANCHAGARH",
      "zone": "West",
      "division": "Rangpur",
      "gauge": "Broad",
      "lat": 26.3393,
      "lng": 88.5493,
      "is_intercity_hub": false,
      "type": "B"
    },
    {
      "id": 38,
      "name_en": "Kurigram",
      "name_bn": "কুড়িগ্রাম",
      "code": "KRG",
      "shohoz_city": "KURIGRAM",
      "zone": "West",
      "division": "Rangpur",
      "gauge": "Broad",
      "lat": 25.8033,
      "lng": 89.6360,
      "is_intercity_hub": false,
      "type": "B"
    },
    {
      "id": 39,
      "name_en": "Chilahati",
      "name_bn": "চিলাহাটি",
      "code": "CLH",
      "shohoz_city": "CHILAHATI",
      "zone": "West",
      "division": "Rangpur",
      "gauge": "Broad",
      "lat": 25.9913,
      "lng": 88.7742,
      "is_intercity_hub": false,
      "type": "B",
      "note": "Border station — potential international link to India"
    },
    {
      "id": 40,
      "name_en": "Khulna",
      "name_bn": "খুলনা",
      "code": "KHU",
      "shohoz_city": "KHULNA",
      "zone": "West",
      "division": "Khulna",
      "gauge": "Broad",
      "lat": 22.8456,
      "lng": 89.5403,
      "is_intercity_hub": true,
      "type": "A"
    },
    {
      "id": 41,
      "name_en": "Jessore (Jashore)",
      "name_bn": "যশোর",
      "code": "JS",
      "shohoz_city": "JASHORE",
      "zone": "West",
      "division": "Khulna",
      "gauge": "Broad",
      "lat": 23.1543,
      "lng": 89.2086,
      "is_intercity_hub": false,
      "type": "B"
    },
    {
      "id": 42,
      "name_en": "Benapole",
      "name_bn": "বেনাপোল",
      "code": "BNP",
      "shohoz_city": "BENAPOLE",
      "zone": "West",
      "division": "Khulna",
      "gauge": "Broad",
      "lat": 23.0113,
      "lng": 88.9307,
      "is_intercity_hub": false,
      "type": "B",
      "note": "Border station — India-Bangladesh land port"
    },
    {
      "id": 43,
      "name_en": "Rupsha",
      "name_bn": "রূপসা",
      "code": "RPS",
      "shohoz_city": "RUPSHA",
      "zone": "West",
      "division": "Khulna",
      "gauge": "Broad",
      "lat": 22.7786,
      "lng": 89.5584,
      "is_intercity_hub": false,
      "type": "C"
    },
    {
      "id": 44,
      "name_en": "Barisal",
      "name_bn": "বরিশাল",
      "code": "BRL",
      "shohoz_city": "BARISAL",
      "zone": "West",
      "division": "Barisal",
      "gauge": "Broad",
      "lat": 22.7010,
      "lng": 90.3535,
      "is_intercity_hub": false,
      "type": "B",
      "note": "Planned — Padma Bridge rail link extension pending"
    },
    {
      "id": 45,
      "name_en": "Faridpur",
      "name_bn": "ফরিদপুর",
      "code": "FRP",
      "shohoz_city": "FARIDPUR",
      "zone": "West",
      "division": "Dhaka",
      "gauge": "Broad",
      "lat": 23.6070,
      "lng": 89.8429,
      "is_intercity_hub": false,
      "type": "B",
      "note": "New Padma Bridge rail link station"
    },
    {
      "id": 46,
      "name_en": "Rajbari",
      "name_bn": "রাজবাড়ী",
      "code": "RBR",
      "shohoz_city": "RAJBARI",
      "zone": "West",
      "division": "Dhaka",
      "gauge": "Broad",
      "lat": 23.7621,
      "lng": 89.6398,
      "is_intercity_hub": false,
      "type": "B"
    },
    {
      "id": 47,
      "name_en": "Tangail",
      "name_bn": "টাঙ্গাইল",
      "code": "TGL",
      "shohoz_city": "TANGAIL",
      "zone": "East",
      "division": "Dhaka",
      "gauge": "Meter",
      "lat": 24.2512,
      "lng": 89.9167,
      "is_intercity_hub": false,
      "type": "B"
    },
    {
      "id": 48,
      "name_en": "Gazipur",
      "name_bn": "গাজীপুর",
      "code": "GZP",
      "shohoz_city": "GAZIPUR",
      "zone": "East",
      "division": "Dhaka",
      "gauge": "Dual",
      "lat": 23.9990,
      "lng": 90.4115,
      "is_intercity_hub": false,
      "type": "B"
    },
    {
      "id": 49,
      "name_en": "Gaibandha",
      "name_bn": "গাইবান্ধা",
      "code": "GBD",
      "shohoz_city": "GAIBANDHA",
      "zone": "West",
      "division": "Rangpur",
      "gauge": "Broad",
      "lat": 25.3285,
      "lng": 89.5283,
      "is_intercity_hub": false,
      "type": "B"
    },
    {
      "id": 50,
      "name_en": "Pabna",
      "name_bn": "পাবনা",
      "code": "PBN",
      "shohoz_city": "PABNA",
      "zone": "West",
      "division": "Rajshahi",
      "gauge": "Broad",
      "lat": 24.0064,
      "lng": 89.2372,
      "is_intercity_hub": false,
      "type": "B"
    },
    {
      "id": 51,
      "name_en": "Ullapara",
      "name_bn": "উল্লাপাড়া",
      "code": "ULP",
      "shohoz_city": "ULLAPARA",
      "zone": "West",
      "division": "Rajshahi",
      "gauge": "Broad",
      "lat": 24.3301,
      "lng": 89.6024,
      "is_intercity_hub": false,
      "type": "B"
    },
    {
      "id": 52,
      "name_en": "Burimari",
      "name_bn": "বুড়িমারী",
      "code": "BMR",
      "shohoz_city": "BURIMARI",
      "zone": "West",
      "division": "Rangpur",
      "gauge": "Broad",
      "lat": 25.8813,
      "lng": 89.3394,
      "is_intercity_hub": false,
      "type": "B",
      "note": "Border station — India-Bangladesh land port"
    }
  ]
}
